City_ID,City,Lat,Lng,Max Temp,Humidity,Cloudiness,Wind Speed,Country,Date
0,yellowknife,62.456,-114.3525,-27.71,63,75,1.03,CA,1675541180
1,brae,60.3964,-1.353,6.34,64,100,11.38,GB,1675541564
2,faanui,-16.4833,-151.75,27.47,71,69,7.89,PF,1675541249
3,busselton,-33.65,115.3333,23.51,45,93,3.33,AU,1675541203
4,albany,42.6001,-73.9662,-11.77,42,54,0.89,US,1675540920
5,mar del plata,-38.0023,-57.5575,23.79,64,0,7.72,AR,1675541014
6,dangara,29.6799,75.8931,13.4,52,0,2.84,IN,1675541679
7,castro,-24.7911,-50.0119,21.52,85,60,4.12,BR,1675541015
8,atuona,-9.8,-139.0333,25.68,79,22,8.01,PF,1675541203
9,ilulissat,69.2167,-51.1,-18.99,78,40,3.09,GL,1675541232
10,hami,42.8,93.45,-0.85,36,100,1.97,CN,1675541452
11,kodiak,57.79,-152.4072,-4.27,86,0,2.57,US,1675541217
12,mataura,-46.1927,168.8643,21.16,74,100,2.99,NZ,1675541200
13,levelland,33.5873,-102.378,17.88,22,100,7.33,US,1675541680
14,port lincoln,-34.7333,135.8667,15.07,80,43,1.72,AU,1675541445
15,sakaiminato,35.55,133.2333,4.31,59,65,0.74,JP,1675541595
16,bluff,-46.6,168.3333,19.08,80,100,4.89,NZ,1675541187
17,magan,39.9683,-3.931,10.29,49,0,3.13,ES,1675541681
18,bethel,41.3712,-73.414,-7.36,36,75,3.6,US,1675540989
19,port alfred,-33.5906,26.891,23.43,86,100,0.89,ZA,1675541213
20,qaanaaq,77.484,-69.3632,-18.87,66,100,2.48,GL,1675541223
21,rikitea,-23.1203,-134.9692,25.85,76,3,7.04,PF,1675541189
22,ushuaia,-54.8,-68.3,12.81,50,0,1.03,AR,1675541133
23,vaini,-21.2,-175.2,27.09,89,20,4.63,TO,1675540894
24,jamestown,42.097,-79.2353,-3.32,35,20,7.72,US,1675541015
25,nizwa,22.9333,57.5333,21.52,55,0,0.51,OM,1675541608
26,bambous virieux,-20.3428,57.7575,26.23,84,43,4.67,MU,1675541431
27,norman wells,65.282,-126.8329,-25.17,96,99,1.57,CA,1675541455
28,chokurdakh,70.6333,147.9167,-34.37,99,51,3.48,RU,1675541520
29,butaritari,3.0707,172.7902,27.35,80,73,8.82,KI,1675540941
30,fortuna,40.5982,-124.1573,15.37,59,100,5.36,US,1675541244
31,barrow,71.2906,-156.7887,-30.99,76,75,3.09,US,1675541214
32,ponta do sol,32.6667,-17.1,17.62,61,23,4.39,PT,1675541220
33,kenai,60.5544,-151.2583,-4.36,87,100,2.06,US,1675541262
34,ibra,22.6906,58.5334,19.71,59,5,1.82,OM,1675541683
35,atocha,-20.9333,-66.2333,4.94,94,100,2.61,BO,1675541683
36,aripuana,-9.1667,-60.6333,27.65,81,100,0.92,BR,1675541597
37,kuito,-12.3833,16.9333,16.34,90,100,1.81,AO,1675541684
38,georgetown,5.4112,100.3354,25.96,88,20,2.57,MY,1675541159
39,penzance,50.1186,-5.5371,9.38,82,99,3.89,GB,1675541684
40,east london,-33.0153,27.9116,24.45,82,100,7.59,ZA,1675541185
41,lata,40.1629,-8.3327,12.12,74,0,1.71,PT,1675541537
42,kapaa,22.0752,-159.319,23.18,94,100,6.69,US,1675541175
43,cape town,-33.9258,18.4232,22.28,84,20,5.66,ZA,1675540905
44,isangel,-19.55,169.2667,28.06,94,75,0.0,VU,1675541544
45,punta arenas,-53.15,-70.9167,10.06,93,100,3.09,CL,1675541176
46,svetlaya,46.5389,138.3297,-13.29,70,27,3.18,RU,1675541513
47,elat,29.5581,34.9482,14.91,44,0,0.0,IL,1675541685
48,klaksvik,62.2266,-6.589,4.51,62,12,13.79,FO,1675541185
49,mandera,3.9366,41.867,28.06,25,100,3.39,KE,1675541686
50,la ronge,55.1001,-105.2842,-13.91,87,100,0.71,CA,1675541569
51,senno,59.5336,33.9167,-4.3,95,97,2.95,RU,1675541686
52,hobart,-42.8794,147.3294,13.48,71,20,4.63,AU,1675540955
53,lithakia,37.7167,20.8333,7.65,61,6,13.38,GR,1675541241
54,asau,46.4333,26.4,-3.49,95,100,4.63,RO,1675541516
55,jasdan,22.0333,71.2,20.6,22,64,3.32,IN,1675541687
56,belmonte,-15.8631,-38.8828,28.13,73,3,5.07,BR,1675541688
57,tiksi,71.6872,128.8694,-25.29,100,100,2.09,RU,1675541537
58,torbay,47.6666,-52.7314,-13.01,81,100,14.4,CA,1675541482
59,tuktoyaktuk,69.4541,-133.0374,-42.0,66,0,1.54,CA,1675541189
60,hilo,19.7297,-155.09,22.92,98,100,0.45,US,1675541532
61,hermanus,-34.4187,19.2345,18.78,94,19,3.33,ZA,1675541195
62,kiama,-34.6833,150.8667,18.89,71,0,2.24,AU,1675541689
63,karratha,-20.7377,116.8463,31.17,48,76,4.64,AU,1675541512
64,umm lajj,25.0213,37.2685,19.68,52,9,4.18,SA,1675541283
65,halifax,44.6453,-63.5724,-13.21,64,99,8.05,CA,1675541596
66,micheweni,-4.9667,39.8333,26.92,78,100,4.87,TZ,1675541689
67,meru,0.0463,37.6559,15.87,67,45,1.83,KE,1675541690
68,severo-kurilsk,50.6789,156.125,-3.4,73,100,2.88,RU,1675541476
69,paamiut,61.994,-49.6678,-8.75,75,100,5.09,GL,1675541245
70,mica,46.3667,24.4167,-1.03,74,75,6.69,RO,1675541690
71,wewak,-3.5534,143.6268,25.44,87,100,1.7,PG,1675541691
72,lakes entrance,-37.8811,147.981,12.4,81,45,5.63,AU,1675541691
73,port augusta,-32.5,137.7667,16.42,60,3,2.42,AU,1675541691
74,tasiilaq,65.6145,-37.6368,-3.91,87,100,6.02,GL,1675541032
75,alihe,50.5667,123.7167,-26.09,100,94,1.45,CN,1675541692
76,mackenzie,55.2999,-123.1698,0.12,100,100,4.63,CA,1675541581
77,korla,41.7597,86.1469,-3.48,72,76,0.7,CN,1675541580
78,pionerskiy,54.9508,20.2275,-1.09,69,99,8.18,RU,1675541692
79,gazli,40.1333,63.45,3.52,73,1,2.1,UZ,1675541693
80,naliya,23.2667,68.8333,19.62,53,0,3.1,IN,1675541693
81,de aar,-30.6497,24.0123,23.41,41,100,3.99,ZA,1675541693
82,linjiang,41.8069,126.9078,-19.21,98,57,0.44,CN,1675541694
83,okhotsk,59.3833,143.3,-26.45,82,45,5.2,RU,1675541451
84,pangnirtung,66.1451,-65.7125,-37.0,67,0,1.03,CA,1675541060
85,arraial do cabo,-22.9661,-42.0278,32.98,62,0,5.14,BR,1675541175
86,susanville,40.4163,-120.653,6.48,70,0,0.89,US,1675541695
87,katsuura,35.1333,140.3,6.94,70,4,5.26,JP,1675541224
88,najran,17.4924,44.1277,18.36,46,58,1.16,SA,1675541695
89,pervomayskiy,53.2485,40.2871,-6.08,96,96,2.2,RU,1675541695
90,nikolskoye,59.7035,30.7861,-2.06,92,100,3.57,RU,1675541252
91,port elizabeth,-33.918,25.5701,24.62,83,0,2.06,ZA,1675541188
92,cayenne,4.9333,-52.3333,25.02,94,75,3.09,GF,1675541349
93,rawson,-43.3002,-65.1023,32.81,26,21,5.49,AR,1675541473
94,razdolnoye,43.55,131.9167,-21.77,94,47,0.89,RU,1675541696
95,maldonado,-34.6667,-54.9167,22.9,74,54,8.81,UY,1675541697
96,omboue,-1.5746,9.2618,26.1,85,99,2.04,GA,1675541474
97,garowe,8.4054,48.4845,19.95,68,83,7.15,SO,1675541697
98,san pedro de macoris,18.4616,-69.2972,30.07,56,45,4.09,DO,1675541697
99,bathsheba,13.2167,-59.5167,28.34,69,40,9.77,BB,1675541618
100,kuminskiy,58.6667,66.5667,-16.96,98,99,1.88,RU,1675541698
101,sinnamary,5.3833,-52.95,25.23,88,100,6.97,GF,1675541516
102,viedma,-40.8135,-62.9967,33.63,24,0,9.07,AR,1675541698
103,pozo colorado,-23.4923,-58.7972,34.14,28,49,1.07,PY,1675541592
104,rupnagar,30.9664,76.5331,13.87,60,0,2.81,IN,1675541699
105,skjervoy,70.0311,20.9714,-3.0,68,98,5.7,NO,1675541699
106,plettenberg bay,-34.0527,23.3716,22.4,73,36,1.39,ZA,1675541539
107,madimba,-10.4,40.3333,25.76,82,98,0.86,TZ,1675541629
108,bredasdorp,-34.5322,20.0403,22.04,81,0,1.78,ZA,1675541210
109,dicabisagan,17.0818,122.4157,22.16,89,85,0.79,PH,1675541700
110,springdale,36.1867,-94.1288,10.85,52,0,6.71,US,1675541700
111,kikwit,-5.041,18.8162,21.44,95,100,0.2,CD,1675541701
112,mehamn,71.0357,27.8492,-2.03,80,100,1.54,NO,1675541265
113,gat,31.61,34.7642,12.44,100,58,3.18,IL,1675541702
114,kumysh,43.8833,41.8932,-2.17,76,70,1.38,RU,1675541702
115,lala,7.9745,123.7458,22.52,94,85,0.5,PH,1675541703
116,palana,59.1167,159.9667,-22.22,99,96,1.77,RU,1675541703
117,carutapera,-1.195,-46.02,25.54,92,100,4.17,BR,1675541577
118,puerto ayora,-0.7393,-90.3518,29.98,88,34,3.58,EC,1675541433
119,chernyshevskiy,63.0128,112.4714,-35.63,100,100,1.43,RU,1675541532
120,atasu,48.6814,71.6433,-12.82,98,94,2.49,KZ,1675541566
121,saint-philippe,-21.3585,55.7679,25.77,87,98,4.51,RE,1675541247
122,aykhal,66.0,111.5,-37.52,100,100,1.13,RU,1675541704
123,coihaique,-45.5752,-72.0662,29.97,26,20,2.57,CL,1675541426
124,saldanha,-33.0117,17.9442,18.88,96,81,6.94,ZA,1675541483
125,aguimes,27.9054,-15.4461,14.81,82,75,2.06,ES,1675541194
126,mildura,-34.2,142.15,14.28,66,5,3.83,AU,1675541705
127,oppdal,62.5943,9.6912,-7.4,70,100,5.69,NO,1675541706
128,puerto asis,0.5133,-76.5007,32.0,41,56,1.32,CO,1675541706
129,kaeo,-35.1,173.7833,21.85,90,93,3.17,NZ,1675541706
130,sambava,-14.2667,50.1667,24.93,90,56,4.39,MG,1675541707
131,thompson,55.7435,-97.8558,-17.93,86,97,1.48,CA,1675541208
132,cherskiy,68.75,161.3,-37.34,100,93,2.39,RU,1675541433
133,muros,42.7762,-9.0603,11.16,79,1,4.22,ES,1675541194
134,jumla,29.2747,82.1838,3.03,43,0,1.84,NP,1675541542
135,shanghai,31.2222,121.4581,7.18,68,0,2.0,CN,1675541708
136,ostrovnoy,68.0531,39.5131,-10.8,85,99,4.73,RU,1675541514
137,pisco,-13.7,-76.2167,24.03,83,0,3.6,PE,1675541432
138,tezu,27.9167,96.1667,16.01,28,20,1.92,IN,1675541709
139,port hawkesbury,45.6169,-61.3485,-16.9,87,100,10.8,CA,1675541709
140,ancud,-41.8697,-73.8203,21.01,65,43,2.21,CL,1675541441
141,hithadhoo,-0.6,73.0833,27.31,73,98,6.76,MV,1675540887
142,sao felix do xingu,-6.6447,-51.995,28.14,82,75,0.51,BR,1675541710
143,ustka,54.5805,16.8619,-1.86,65,100,6.98,PL,1675541710
144,auki,-8.7676,160.7034,26.48,86,100,2.27,SB,1675541515
145,bandar-e lengeh,26.5579,54.8807,19.01,69,9,6.3,IR,1675541711
146,new norfolk,-42.7826,147.0587,13.29,64,23,1.57,AU,1675541199
147,tessalit,20.1986,1.0114,17.48,14,65,4.78,ML,1675541465
148,mogzon,51.7435,111.9606,-25.4,100,100,0.79,RU,1675541711
149,provideniya,64.3833,-173.3,-19.89,89,100,4.75,RU,1675541490
150,melbu,68.5044,14.8297,2.88,64,100,8.75,NO,1675541586
151,mayo,38.8876,-76.5119,0.64,45,0,5.66,US,1675541212
152,manokwari,-0.8667,134.0833,24.98,84,100,1.74,ID,1675541712
153,bilma,18.6853,12.9164,23.76,14,28,2.55,NE,1675541210
154,kahului,20.8947,-156.47,23.5,90,75,7.2,US,1675541199
155,tambacounda,13.7539,-13.7586,29.03,17,0,3.09,SN,1675541713
156,sitka,57.0531,-135.33,1.94,87,100,1.54,US,1675541371
157,vinga,46.0167,21.2,-0.1,69,0,10.29,RO,1675541714
158,antofagasta,-23.65,-70.4,24.6,66,1,3.38,CL,1675541544
159,marsa matruh,31.3525,27.2453,14.01,65,53,5.91,EG,1675541594
160,beamsville,43.1668,-79.4829,-2.86,60,83,8.23,CA,1675541715
161,tazovskiy,67.4667,78.7,-14.19,96,100,1.86,RU,1675541547
162,fernley,39.608,-119.2518,9.92,44,100,1.34,US,1675541715
163,saskylakh,71.9167,114.0833,-42.58,100,77,1.17,RU,1675541212
164,namibe,-15.1961,12.1522,21.66,77,30,4.3,AO,1675541454
165,kaitangata,-46.2817,169.8464,21.48,68,100,2.5,NZ,1675541146
166,mount gambier,-37.8333,140.7667,13.35,84,100,1.38,AU,1675541716
167,lebu,-37.6167,-73.65,18.98,79,51,4.85,CL,1675541253
168,caborca,30.5838,-111.101,23.14,15,0,1.25,MX,1675541716
169,mahebourg,-20.4081,57.7,26.25,83,40,2.57,MU,1675540924
170,bani,18.2833,-70.3333,29.69,55,5,6.17,DO,1675541717
171,upernavik,72.7868,-56.1549,-21.15,95,100,3.15,GL,1675541429
172,sangmelima,2.9333,11.9833,25.05,56,80,2.43,CM,1675541717
173,arlit,18.7369,7.3853,24.53,11,27,4.92,NE,1675541503
174,boyolangu,-8.1181,111.8935,24.24,82,100,1.0,ID,1675541718
175,honningsvag,70.9821,25.9704,-3.14,74,47,7.72,NO,1675541719
176,srednekolymsk,67.45,153.6833,-35.13,100,100,1.26,RU,1675541606
177,vestmannaeyjar,63.4427,-20.2734,4.56,64,100,11.21,IS,1675541424
178,fairbanks,64.8378,-147.7164,-12.02,79,100,1.54,US,1675541570
179,darovskoy,58.77,47.9564,-7.35,99,100,0.67,RU,1675541720
180,avarua,-21.2078,-159.775,28.03,83,40,6.69,CK,1675541176
181,evensk,61.95,159.2333,-19.25,82,100,3.73,RU,1675541256
182,shubarshi,48.5872,57.1869,-12.62,88,93,4.43,KZ,1675541252
183,novyy urengoy,66.0833,76.6333,-11.42,96,100,2.77,RU,1675541721
184,pasighat,28.0667,95.3333,16.0,36,69,1.66,IN,1675541721
185,katherine,-14.4667,132.2667,23.18,94,15,0.0,AU,1675541323
186,saint-pierre,-21.3393,55.4781,25.82,78,0,1.54,RE,1675541239
187,makakilo city,21.3469,-158.0858,21.77,89,100,3.6,US,1675541722
188,luderitz,-26.6481,15.1594,17.71,85,5,7.26,NA,1675541192
189,ribeira grande,38.5167,-28.7,17.1,88,20,4.92,PT,1675541131
190,mugla,37.2303,28.3557,-0.28,98,92,1.58,TR,1675541722
191,mumford,5.2618,-0.759,26.24,81,47,4.52,GH,1675541222
192,kula,38.5473,28.6498,1.16,76,100,1.99,TR,1675541723
193,kaka,37.3482,59.6143,5.4,69,100,3.27,TM,1675541724
194,chuy,-33.6971,-53.4616,24.2,57,1,7.39,UY,1675541227
195,oyem,1.5995,11.5793,22.34,83,18,2.06,GA,1675541601
196,daru,-9.0763,143.2092,24.26,94,100,3.73,PG,1675541724
197,rafaela,-31.2503,-61.4867,29.99,21,0,1.34,AR,1675541724
198,lima,-12.0432,-77.0282,25.14,65,0,7.72,PE,1675541122
199,west monroe,32.5185,-92.1476,15.4,42,0,3.09,US,1675541725
200,carnarvon,-24.8667,113.6333,25.65,72,2,1.63,AU,1675541150
201,salas,43.4118,-6.2602,7.2,93,10,1.22,ES,1675541725
202,algeciras,36.1333,-5.4505,14.82,72,0,5.14,ES,1675541521
203,grindavik,63.8424,-22.4338,3.26,65,75,10.29,IS,1675541025
204,teguldet,57.3064,88.1667,-22.46,100,100,0.36,RU,1675541726
205,leningradskiy,69.3833,178.4167,-32.4,99,100,2.09,RU,1675541727
206,victoria,22.2855,114.1577,18.03,85,100,4.92,HK,1675541454
207,taltal,-25.4,-70.4833,22.47,74,14,1.6,CL,1675541510
208,college,64.8569,-147.8028,-12.03,78,75,1.54,US,1675541534
209,maiduguri,11.8464,13.1603,24.96,14,100,3.91,NG,1675541657
210,vestmanna,62.1564,-7.1664,3.51,75,75,7.2,FO,1675541490
211,phimai,15.2232,102.4947,24.28,78,94,1.39,TH,1675541728
212,shaoguan,24.8,113.5833,12.22,90,100,1.01,CN,1675541728
213,nemuro,43.3236,145.575,-5.49,76,26,4.78,JP,1675541539
214,marzuq,14.4,46.4667,17.93,72,18,1.72,YE,1675541547
215,jalu,29.0331,21.5482,13.35,49,100,2.81,LY,1675541316
216,poum,-20.2333,164.0167,27.35,79,48,2.03,NC,1675541208
217,dorokhovo,55.5506,36.3744,-3.58,97,100,2.11,RU,1675541729
218,anchorage,61.2181,-149.9003,-4.25,92,100,0.0,US,1675541432
219,cabo san lucas,22.8909,-109.9124,27.01,50,0,3.09,MX,1675541524
220,marfino,55.7028,37.3822,0.05,92,100,3.0,RU,1675541730
221,mweka,-4.85,21.5667,19.71,98,100,0.4,CD,1675541730
222,riyadh,24.6877,46.7219,16.08,50,0,6.13,SA,1675541321
223,aswan,24.0934,32.907,15.71,25,63,4.56,EG,1675541652
224,pevek,69.7008,170.3133,-37.78,100,89,1.0,RU,1675540977
225,azamgarh,26.06,83.1861,12.3,59,1,2.94,IN,1675541731
226,gorontalo,0.5412,123.0595,23.62,90,100,1.3,ID,1675541732
227,salalah,17.0151,54.0924,23.05,78,40,1.03,OM,1675541448
228,bay city,43.5945,-83.8889,-1.61,56,0,9.26,US,1675541681
229,carballo,43.213,-8.691,10.56,94,5,1.78,ES,1675541196
230,bambanglipuro,-7.95,110.2833,24.75,89,100,3.32,ID,1675541556
231,narsaq,60.9167,-46.05,0.12,90,100,8.76,GL,1675541526
232,serrinha,-11.6642,-39.0075,34.16,27,22,5.45,BR,1675541733
233,soto la marina,23.7667,-98.2167,24.25,36,2,4.71,MX,1675541733
234,clyde river,70.4692,-68.5914,-24.66,87,100,2.79,CA,1675541551
235,mnogovershinnyy,53.9353,139.9242,-27.84,92,66,1.53,RU,1675541733
236,thiruvananthapuram,8.4833,76.9167,27.99,78,40,0.0,IN,1675541734
237,padang,-0.9492,100.3543,24.82,85,100,1.48,ID,1675541234
238,hasaki,35.7333,140.8333,2.34,56,2,7.69,JP,1675541216
239,yulara,-25.2406,130.9889,18.98,32,0,4.7,AU,1675541513
240,airai,-8.9266,125.4092,15.69,91,100,0.94,TL,1675541158
241,te anau,-45.4167,167.7167,18.21,98,100,1.81,NZ,1675541497
242,rosetta,31.4044,30.4164,13.83,60,16,4.35,EG,1675541735
243,trairi,-3.2778,-39.2689,27.79,73,64,5.06,BR,1675541735
244,hamilton,39.1834,-84.5333,8.66,39,100,8.23,US,1675541053
245,saint george,37.1041,-113.5841,13.57,35,0,0.89,US,1675541250
246,cooma,-36.2333,149.1333,6.21,88,0,1.33,AU,1675541736
247,xingtai,37.0631,114.4942,1.51,55,0,2.83,CN,1675541736
248,geraldton,-28.7667,114.6,21.23,88,75,1.54,AU,1675541434
249,dong xoai,11.5333,106.9167,22.07,78,42,1.37,VN,1675541737
250,bengkulu,-3.8004,102.2655,23.32,90,100,1.92,ID,1675541226
251,limon,10.0,-83.0333,28.94,58,0,2.57,CR,1675541737
252,broome,42.2506,-75.833,-7.73,59,100,3.58,US,1675541220
253,mango,27.9797,-82.3065,25.53,57,0,5.66,US,1675541738
254,doha,25.2867,51.5333,17.99,39,0,2.57,QA,1675541336
255,eureka,40.8021,-124.1637,15.52,50,100,2.24,US,1675541738
256,babol,36.5513,52.679,8.98,59,100,1.55,IR,1675541739
257,kachug,53.9606,105.8817,-21.19,100,96,1.19,RU,1675541438
258,san policarpo,12.1791,125.5072,25.84,85,99,6.92,PH,1675541198
259,manado,1.487,124.8455,22.43,100,20,0.51,ID,1675541739
260,praia da vitoria,38.7333,-27.0667,16.53,94,75,5.3,PT,1675541739
261,san patricio,28.017,-97.5169,20.97,52,61,4.33,US,1675541223
262,okha,53.5739,142.9478,-28.24,99,79,4.56,RU,1675541713
263,mocuba,-16.8392,36.9856,23.13,96,96,0.6,MZ,1675541740
264,nome,64.5011,-165.4064,-11.96,85,100,3.6,US,1675541468
265,nizhnyaya tavda,57.6731,66.1725,-17.37,99,96,1.63,RU,1675541740
266,khatanga,71.9667,102.5,-38.73,100,54,2.19,RU,1675541204
267,khandyga,62.6667,135.6,-42.84,99,91,0.58,RU,1675541741
268,almetyevsk,54.9044,52.3154,-11.06,91,100,1.41,RU,1675541741
269,berlevag,70.8578,29.0864,-2.0,86,100,3.6,NO,1675541511
270,aklavik,68.2191,-135.0107,-40.12,99,53,0.69,CA,1675541447
271,catuday,16.2923,119.8062,23.76,70,100,6.05,PH,1675541742
272,lorengau,-2.0226,147.2712,27.15,73,100,1.87,PG,1675541270
273,jimma,7.6667,36.8333,17.35,32,4,0.73,ET,1675541743
274,acheng,45.5454,126.977,-13.67,89,100,3.4,CN,1675541744
275,semey,50.4111,80.2275,-9.91,96,98,2.41,KZ,1675541745
276,saint-joseph,-21.3667,55.6167,25.21,85,98,4.87,RE,1675541603
277,sorong,-0.8833,131.25,25.11,88,100,2.49,ID,1675541621
278,rocha,-34.4833,-54.3333,21.03,81,52,8.63,UY,1675541328
279,vardo,70.3705,31.1107,-8.01,67,100,4.12,NO,1675541193
280,aleksandrov gay,50.147,48.5704,-5.03,95,100,2.18,RU,1675541745
281,esperance,-33.8667,121.9,17.67,71,0,6.88,AU,1675541201
282,cravo norte,6.3017,-70.2041,32.95,35,99,3.88,CO,1675541747
283,jega,12.2175,4.3792,28.86,11,70,4.48,NG,1675541747
284,inza,53.8533,46.3586,-14.44,100,99,1.2,RU,1675541747
285,sarangani,5.4033,125.4636,27.38,73,100,7.14,PH,1675541748
286,alexandria,31.2156,29.9553,14.98,58,49,4.87,EG,1675541748
287,tocopilla,-22.092,-70.1979,23.72,73,8,1.95,CL,1675541339
288,saint-marc,19.1082,-72.6938,28.09,58,0,5.86,HT,1675541749
289,vaitape,-16.5167,-151.75,27.48,71,70,7.93,PF,1675541240
290,quelimane,-17.8786,36.8883,26.97,89,20,2.06,MZ,1675541614
291,okato,-39.2,173.8833,22.17,88,71,7.6,NZ,1675541749
292,kambove,-10.8764,26.5969,16.37,97,100,2.45,CD,1675541749
293,saint-georges,12.0564,-61.7485,26.25,78,3,7.8,GD,1675541567
294,delemont,47.3649,7.3445,5.75,93,75,1.02,CH,1675541750
295,constitucion,-35.3333,-72.4167,20.15,74,43,3.34,CL,1675541523
296,alyangula,-13.8483,136.4192,26.73,60,98,0.87,AU,1675541612
297,eston,51.1501,-108.7514,-1.71,89,96,2.3,CA,1675541751
298,burgeo,47.6167,-57.6152,-12.9,84,99,18.69,CA,1675541751
299,walvis bay,-22.9575,14.5053,18.38,78,100,6.19,NA,1675541596
300,impfondo,1.6381,18.0667,27.31,32,100,1.19,CG,1675541752
301,ruidoso,33.3317,-105.673,13.26,13,2,4.63,US,1675541752
302,sechura,-5.5569,-80.8222,28.01,56,95,8.0,PE,1675541601
303,ahipara,-35.1667,173.1667,19.75,89,100,3.35,NZ,1675540989
304,souillac,-20.5167,57.5167,25.46,86,52,4.77,MU,1675541247
305,kyren,51.6828,102.1408,-17.39,89,34,0.59,RU,1675541753
306,touros,-5.1989,-35.4608,27.67,74,93,6.66,BR,1675541545
307,bintulu,3.1667,113.0333,24.23,100,20,0.0,MY,1675541753
308,bocaiuva,-17.1078,-43.815,28.49,59,20,1.87,BR,1675541580
309,melfi,40.9965,15.6514,5.31,61,100,7.34,IT,1675541754
310,guerrero negro,27.9769,-114.0611,20.87,35,0,4.19,MX,1675541252
311,soyo,-6.1349,12.3689,26.98,84,85,4.82,AO,1675541754
312,hambantota,6.1241,81.1185,24.31,86,11,5.4,LK,1675541237
313,pimentel,-6.8367,-79.9342,27.16,61,0,8.75,PE,1675541755
314,san quintin,30.4833,-115.95,18.49,50,0,4.22,MX,1675541645
315,bhadrachalam,17.6667,80.8833,19.34,79,5,1.08,IN,1675541755
316,vawkavysk,53.1561,24.4513,-3.92,77,96,6.03,BY,1675541756
317,tuatapere,-46.1333,167.6833,19.09,95,100,2.58,NZ,1675541184
318,diffa,13.3154,12.6113,24.83,14,88,3.09,NE,1675541243
319,chingirlau,51.095,54.0814,-12.22,87,100,4.69,KZ,1675541756
320,cidreira,-30.1811,-50.2056,25.72,65,71,4.61,BR,1675541258
321,lufilufi,-13.8745,-171.5986,28.77,77,100,6.99,WS,1675541757
322,avera,33.194,-82.5271,10.77,33,9,3.19,US,1675541514
323,limoeiro do ajuru,-1.8953,-49.3806,26.86,86,60,2.88,BR,1675541757
324,gilbues,-9.8317,-45.3439,26.55,70,66,3.05,BR,1675541758
325,pacific grove,36.6177,-121.9166,17.72,78,20,9.39,US,1675541211
326,labuhan,-6.8844,112.2051,25.09,88,100,3.3,ID,1675541573
327,forrest city,35.0081,-90.7898,5.81,58,100,4.39,US,1675541758
328,vostok,46.4856,135.8833,-21.3,98,100,2.25,RU,1675541574
329,palmer,42.1584,-72.3287,-9.31,23,75,1.54,US,1675541759
330,urusha,54.05,122.9,-27.4,98,100,0.81,RU,1675541759
331,dukat,62.55,155.55,-31.33,98,100,1.96,RU,1675541760
332,vila velha,-20.3297,-40.2925,29.97,78,0,7.2,BR,1675541453
333,tual,-5.6667,132.75,27.62,80,100,6.63,ID,1675541155
334,nanakuli,21.3906,-158.1547,22.47,84,100,3.6,US,1675541760
335,sao jose da coroa grande,-8.8978,-35.1478,27.18,74,56,4.08,BR,1675541545
336,iquitos,-3.7481,-73.2472,27.02,78,75,3.6,PE,1675541761
337,wenling,28.3669,121.36,7.65,89,100,3.32,CN,1675541761
338,dakoro,14.5106,6.765,26.11,14,87,3.63,NE,1675541761
339,westport,41.1415,-73.3579,-6.01,31,40,3.09,US,1675541463
340,bundaberg,-24.85,152.35,24.56,91,68,0.45,AU,1675541473
341,kidal,18.4411,1.4078,24.11,10,100,4.36,ML,1675541522
342,uri,34.0833,74.0333,4.51,88,45,3.99,IN,1675541762
343,lavrentiya,65.5833,-171.0,-25.35,95,96,3.12,RU,1675541225
344,toora-khem,52.4675,96.11,-21.3,100,100,0.64,RU,1675541763
345,quang ngai,15.1167,108.8,21.35,89,57,1.8,VN,1675541764
346,mizan teferi,6.9833,35.5833,19.6,49,15,0.73,ET,1675541764
347,san juan,-31.5375,-68.5364,31.75,23,0,4.8,AR,1675541765
348,sioux lookout,50.1001,-91.917,-11.48,88,100,1.85,CA,1675541580
349,nyaunglebin,17.95,96.7333,22.1,68,37,1.99,MM,1675541765
350,smithers,54.7804,-127.1743,2.59,100,98,1.47,CA,1675541445
351,changying,52.8733,123.3213,-27.9,100,99,1.81,CN,1675541766
352,sawakin,19.1059,37.3321,22.63,67,73,4.28,SD,1675541767
353,normandin,48.8333,-72.5321,-18.18,61,100,2.65,CA,1675541535
354,altos,-5.0381,-42.46,32.17,50,71,2.13,BR,1675541767
355,khasan,42.4308,130.6434,-7.94,78,17,1.7,RU,1675541768
356,puruliya,23.3333,86.3667,15.57,32,37,2.71,IN,1675541768
357,lasa,46.6166,10.7002,-3.28,87,39,4.12,IT,1675541155
358,kingston,17.997,-76.7936,28.47,74,87,1.34,JM,1675541624
359,pelotas,-31.7719,-52.3425,29.01,45,20,8.75,BR,1675541769
360,nouakchott,18.0858,-15.9785,21.96,25,100,4.98,MR,1675541770
361,lompoc,34.6391,-120.4579,20.94,70,0,4.12,US,1675541439
362,barcelos,41.5388,-8.6151,12.6,74,0,1.89,PT,1675541470
363,roald,62.5833,6.1333,6.51,65,75,8.23,NO,1675541680
364,odweyne,9.4092,45.064,17.95,36,52,4.78,SO,1675541464
365,le pont-de-claix,45.1244,5.7064,8.04,85,99,3.16,FR,1675541771
366,ketchikan,55.3422,-131.6461,7.99,87,100,3.6,US,1675541532
367,acajutla,13.5928,-89.8275,31.31,46,50,3.4,SV,1675541771
368,aksu,41.1231,80.2644,-7.08,86,12,2.56,CN,1675541455
369,haifa,32.8156,34.9892,14.0,64,66,6.75,IL,1675541772
370,san cristobal,7.7669,-72.225,26.1,34,11,3.15,VE,1675541220
371,agadez,19.75,10.25,21.84,15,9,2.85,NE,1675541591
372,villa guerrero,18.8667,-99.65,21.82,34,2,2.8,MX,1675541564
373,alofi,-19.0595,-169.9187,27.94,78,100,3.09,NU,1675541229
374,saint-augustin,51.226,-58.6502,-12.78,73,81,11.2,CA,1675541578
375,kavieng,-2.5744,150.7967,27.39,73,97,2.0,PG,1675541178
376,cariati,39.4922,16.9594,9.96,54,81,14.78,IT,1675541566
377,khowai,24.1,91.6333,13.12,58,100,1.1,IN,1675541774
378,sibolga,1.7427,98.7792,24.27,88,100,1.45,ID,1675541519
379,dikson,73.5069,80.5464,-20.8,98,100,1.44,RU,1675541256
380,almeirim,-1.5233,-52.5817,29.71,62,55,3.01,BR,1675541774
381,bonavista,48.6499,-53.1147,-12.74,78,87,16.4,CA,1675541775
382,hatillo,18.4863,-66.8254,27.99,80,26,4.02,PR,1675541776
383,inhambane,-23.865,35.3833,24.62,86,10,3.73,MZ,1675541777
384,sept-iles,50.2001,-66.3821,-18.86,81,100,5.36,CA,1675541437
385,talnakh,69.4865,88.3972,-11.55,96,100,2.72,RU,1675541554
386,cochrane,51.1834,-114.4687,1.59,75,6,4.54,CA,1675541572
387,almasfuzito,47.7275,18.2615,0.11,62,5,8.12,HU,1675541778
388,pinawa,50.1489,-95.8811,-8.88,86,100,1.89,CA,1675541778
389,la palma,33.8464,-118.0467,24.31,41,0,3.6,US,1675541778
390,beringovskiy,63.05,179.3167,-30.14,92,38,6.05,RU,1675541779
391,soimus,45.9167,22.9,-0.95,86,100,3.29,RO,1675541779
392,whakatane,-37.9585,176.9854,22.51,92,90,1.34,NZ,1675541780
393,mapiripan,2.8892,-72.1256,32.76,37,98,3.99,CO,1675541780
394,yaan,7.3833,8.5667,31.9,17,100,1.25,NG,1675541781
395,los llanos de aridane,28.6585,-17.9182,14.86,68,40,3.13,ES,1675541177
396,fort nelson,58.8053,-122.7002,-14.47,67,97,0.45,CA,1675541486
397,sisimiut,66.9395,-53.6735,-22.0,96,70,4.04,GL,1675541534
398,bud,39.447,-86.1758,8.01,42,74,7.76,US,1675541518
399,serik,36.9169,31.0989,9.3,62,100,2.98,TR,1675541781
400,chabahar,25.2919,60.643,21.9,77,0,6.22,IR,1675541782
401,mount isa,-20.7333,139.5,20.87,43,100,4.12,AU,1675541212
402,fergus falls,46.283,-96.0776,-4.96,79,0,3.09,US,1675541680
403,dakar,14.6937,-17.4441,22.49,68,0,5.14,SN,1675541700
404,santa cruz,-17.8,-63.1667,29.03,54,75,4.63,BO,1675541577
405,ixtapa,20.7,-105.2,24.57,73,40,5.66,MX,1675541343
406,poya,-21.35,165.15,26.92,84,60,1.83,NC,1675541783
407,bilibino,68.0546,166.4372,-36.87,98,18,2.19,RU,1675541231
408,la ciotat,43.1748,5.6045,11.56,82,0,1.91,FR,1675541783
409,madinat sittah uktubar,29.8167,31.05,14.78,47,51,3.66,EG,1675541784
410,hobyo,5.3505,48.5268,24.16,72,59,7.95,SO,1675541627
411,sosnovo,60.5514,30.2144,-9.41,97,95,2.79,RU,1675541785
412,lagoa,39.05,-27.9833,15.08,87,5,7.67,PT,1675541225
413,umm kaddadah,13.6017,26.6876,18.56,16,38,5.56,SD,1675541785
414,piacabucu,-10.4056,-36.4344,28.05,70,23,5.13,BR,1675541786
415,hokitika,-42.7167,170.9667,19.12,91,100,3.35,NZ,1675541523
416,peterhead,57.5058,-1.7981,5.22,69,90,11.02,GB,1675541786
417,terney,45.0503,136.6092,-12.84,79,80,2.95,RU,1675541579
418,takhtamygda,54.1,123.5667,-30.88,99,93,0.59,RU,1675541787
419,omsukchan,62.5333,155.8,-29.99,97,100,1.93,RU,1675541599
420,komsomolskiy,40.4272,71.7189,4.4,87,100,3.09,UZ,1675540906
421,isoka,-10.1606,32.6335,17.91,92,100,0.88,ZM,1675541788
422,silifke,36.3778,33.9344,8.31,88,100,2.24,TR,1675541789
423,oranjestad,12.524,-70.027,28.28,75,75,10.29,AW,1675541696
424,pundaguitan,6.3711,126.1689,26.69,76,100,6.81,PH,1675541789
425,seoul,37.5683,126.9778,-4.31,65,0,0.46,KR,1675541264
426,natal,-5.795,-35.2094,29.36,65,20,6.69,BR,1675541538
427,ust-nera,64.5667,143.2,-35.22,100,100,0.91,RU,1675541790
428,tianmen,30.6516,113.1603,8.44,73,100,0.96,CN,1675541791
429,bone,51.9669,12.1396,0.84,79,28,2.52,DE,1675541791
430,longyearbyen,78.2186,15.6401,-11.09,79,0,6.17,SJ,1675541235
431,reconquista,-29.15,-59.65,33.68,19,80,4.83,AR,1675541792
432,mabaruma,8.2,-59.7833,26.76,75,87,3.46,GY,1675541792
433,angatuba,-23.4897,-48.4128,25.1,78,99,5.09,BR,1675541793
434,hohhot,40.8106,111.6522,-11.84,61,0,1.0,CN,1675541793
435,kloulklubed,7.0419,134.2556,27.91,76,96,7.73,PW,1675541626
436,iqaluit,63.7506,-68.5145,-35.15,66,20,8.75,CA,1675541139
437,poso,-1.3959,120.7524,26.86,79,100,1.56,ID,1675541793
438,menomonie,44.8755,-91.9193,-2.07,74,75,3.09,US,1675541724
439,road town,18.4167,-64.6167,27.05,76,0,8.8,VG,1675541794
440,ribeira brava,32.65,-17.0667,17.62,64,25,4.99,PT,1675541794
441,kipushi,-11.7667,27.2333,17.19,97,100,1.54,CD,1675541795
442,ust-omchug,61.15,149.6333,-35.71,100,100,1.25,RU,1675541795
443,sumenep,-7.0167,113.8667,25.22,89,100,3.77,ID,1675541795
444,kyshtovka,56.555,76.6271,-19.26,100,100,0.41,RU,1675541550
445,jinka,5.65,36.65,21.08,42,74,0.36,ET,1675541796
446,edson,53.5835,-116.4356,6.08,49,0,1.54,CA,1675541796
447,radhanpur,23.8333,71.6,19.62,25,1,2.62,IN,1675541797
448,biertan,46.1333,24.5167,-1.59,85,100,4.87,RO,1675541797
449,doctor arroyo,23.6667,-100.1833,18.39,22,7,4.23,MX,1675541797
450,berezovka,53.7214,25.4993,-5.55,88,96,5.25,BY,1675541798
451,nelson bay,-32.7167,152.15,19.44,68,0,3.13,AU,1675541701
452,raver,21.25,76.0333,19.98,22,0,2.51,IN,1675541798
453,collie,-33.3667,116.15,23.41,28,80,2.85,AU,1675541799
454,necochea,-38.5473,-58.7368,22.53,44,0,4.91,AR,1675541223
455,ikwiriri,-7.9562,38.9716,23.79,92,100,1.1,TZ,1675541799
456,shizunai,42.3339,142.3669,-5.87,74,14,3.27,JP,1675541530
457,tawau,4.2498,117.8871,25.07,88,78,1.99,MY,1675541800
458,comodoro rivadavia,-45.8667,-67.5,23.66,54,1,4.81,AR,1675541268
459,bandarbeyla,9.4942,50.8122,24.26,64,100,6.91,SO,1675541800
460,shu,43.5983,73.7614,-0.94,95,100,0.68,KZ,1675541800
461,compostela,7.6731,126.0889,22.15,96,100,1.08,PH,1675541801
462,kirakira,-10.4544,161.9205,26.75,85,75,2.0,SB,1675541801
463,kiunga,-6.1219,141.2906,22.78,100,100,1.01,PG,1675541801
464,kalengwa,-13.4659,25.0027,18.24,98,100,2.47,ZM,1675541802
465,raychikhinsk,49.7838,129.4121,-21.45,99,97,1.65,RU,1675541802
466,namatanai,-3.6667,152.4333,25.98,82,100,1.25,PG,1675541803
467,pavlogradka,54.2024,73.5592,-22.2,100,97,1.47,RU,1675541803
468,kassala,15.451,36.4,22.97,43,30,3.93,SD,1675541803
469,richards bay,-28.783,32.0377,22.3,89,7,1.13,ZA,1675541496
470,baraki barak,33.9675,68.9486,-7.59,76,9,1.56,AF,1675541804
471,codrington,-38.2667,141.9667,14.21,82,100,2.63,AU,1675541566
472,hastings,50.8552,0.5729,8.51,19,100,3.69,GB,1675541804
473,adrar,20.5022,-10.0711,17.53,15,100,4.43,MR,1675541228
474,egvekinot,66.3167,-179.1667,-33.81,88,14,6.2,RU,1675541691
475,alice springs,-23.7,133.8833,12.75,82,4,0.0,AU,1675541576
476,nizhniy ingash,56.2,96.53,-17.18,98,100,0.93,RU,1675541805
477,daoukro,7.0591,-3.9631,26.41,57,26,2.33,CI,1675541805
478,swan hill,-35.3378,143.5544,12.39,74,0,2.38,AU,1675541806
479,tautira,-17.7333,-149.15,26.22,78,56,6.16,PF,1675541806
480,farafangana,-22.8167,47.8333,24.12,89,100,3.98,MG,1675541624
481,sorland,67.667,12.6934,2.92,90,100,17.47,NO,1675541554
482,regen,48.9667,13.1333,-0.61,90,99,1.74,DE,1675541806
483,singaraja,-8.112,115.0882,25.76,84,100,2.31,ID,1675541807
484,lodja,-3.4833,23.4333,20.51,96,99,1.14,CD,1675541510
485,lugovoy,42.9472,72.7644,-0.07,84,100,0.91,KZ,1675541807
486,marrakesh,31.6315,-8.0083,13.04,30,40,2.06,MA,1675541721
487,bonthe,7.5264,-12.505,25.67,84,10,4.59,SL,1675541507
488,tecoanapa,16.5167,-98.75,28.86,56,0,4.44,MX,1675541444
489,carbonia,39.1672,8.5222,8.36,88,2,1.25,IT,1675541808
490,mao,39.8885,4.2658,10.31,81,0,2.57,ES,1675541522
491,amahai,-3.3333,128.9167,25.63,83,100,2.37,ID,1675541809
492,itarema,-2.9248,-39.9167,27.5,76,41,6.69,BR,1675541559
493,margate,51.3813,1.3862,8.5,75,100,0.45,GB,1675541244
494,naze,28.3667,129.4833,12.82,68,100,4.81,JP,1675541255
495,dharchula,29.85,80.5333,10.28,34,1,3.59,IN,1675541211
496,ambilobe,-13.2,49.05,23.48,96,99,0.92,MG,1675541550
497,zeerust,-25.5369,26.0751,20.17,78,18,0.82,ZA,1675541810
498,dano,11.15,-3.0667,30.97,14,5,2.86,BF,1675541810
499,mangrol,21.1167,70.1167,21.09,38,6,3.17,IN,1675541355
500,kieta,-6.2167,155.6333,25.8,85,100,1.55,PG,1675541811
501,port-gentil,-0.7193,8.7815,27.65,78,100,4.78,GA,1675541591
502,kununurra,-15.7667,128.7333,23.99,94,75,1.03,AU,1675541552
503,presidente medici,-11.1753,-61.9014,25.91,92,100,1.71,BR,1675541811
504,nieuw amsterdam,5.8833,-55.0833,29.09,74,40,7.2,SR,1675541812
505,belaya gora,68.5333,146.4167,-36.43,100,100,1.88,RU,1675541812
506,saryozek,44.3583,77.9753,-4.36,87,95,1.93,KZ,1675541812
507,san jeronimo,-11.9472,-75.2829,14.87,63,100,1.47,PE,1675541813
508,wilmington,34.2257,-77.9447,8.25,47,0,4.02,US,1675541499
509,vallenar,-28.5708,-70.7581,30.55,33,11,5.54,CL,1675541813
510,barra patuca,15.8,-84.2833,27.04,64,24,3.88,HN,1675541814
511,manali,13.1667,80.2667,26.05,71,4,1.83,IN,1675541814
512,kaisiadorys,54.8667,24.45,-3.02,79,94,5.02,LT,1675541814
513,kavaratti,10.5669,72.642,27.42,67,99,2.59,IN,1675541549
514,yuli,9.6989,10.2744,28.23,17,49,2.49,NG,1675541815
515,defiance,41.3334,-84.45,3.35,51,0,7.2,US,1675541813
516,olafsvik,64.8945,-23.7142,2.82,68,99,11.99,IS,1675541315
517,pallipattu,13.3386,79.4449,19.79,82,0,0.87,IN,1675541815
518,sfantu gheorghe,45.8667,25.7833,-2.82,85,100,3.17,RO,1675541816
519,dwarka,22.2394,68.9678,20.73,62,74,4.16,IN,1675541520
520,teguise,29.0605,-13.564,14.12,55,20,4.12,ES,1675541816
521,freeport,40.6576,-73.5832,-4.01,32,0,3.6,US,1675541612
522,melito di porto salvo,37.9222,15.7714,14.39,76,40,4.12,IT,1675541817
523,paita,-5.0892,-81.1144,26.61,62,93,7.07,PE,1675541817
524,sabzevar,36.2126,57.6819,3.98,44,4,2.46,IR,1675541817
525,russell,32.3502,-85.1999,15.11,31,0,4.12,US,1675541460
526,scottsbluff,41.8666,-103.6672,8.77,45,0,6.17,US,1675541704
527,krasnyy luch,48.1395,38.9371,-4.88,93,45,0.66,UA,1675541818
528,port lavaca,28.615,-96.6261,19.61,68,0,6.69,US,1675541818
529,misratah,32.3754,15.0925,14.63,69,43,1.9,LY,1675541819
530,mingguang,32.7802,117.9638,3.02,70,26,3.04,CN,1675541819
531,mayumba,-3.432,10.6554,25.35,86,83,2.82,GA,1675541819
532,monrovia,6.3005,-10.7969,25.87,86,36,3.72,LR,1675541226
533,rudarpur,26.4394,83.6144,11.8,63,1,2.73,IN,1675541820
534,virden,39.5009,-89.7679,10.84,50,100,7.85,US,1675541820
535,hammerfest,70.6634,23.6821,-1.75,80,40,2.06,NO,1675541500
536,ochakiv,46.6128,31.5498,0.58,70,100,7.68,UA,1675541821
537,skibbereen,51.55,-9.2667,7.28,83,91,3.85,IE,1675541822
538,buala,-8.145,159.5921,26.29,85,100,2.78,SB,1675541529
539,kisangani,0.5167,25.2,23.9,47,17,1.21,CD,1675541822
540,sao joao da barra,-21.6403,-41.0511,31.05,83,7,6.26,BR,1675541823
541,lermontovka,47.1453,134.3383,-17.15,97,100,2.07,RU,1675541823
542,san pedro,14.35,121.0167,23.57,80,20,1.03,PH,1675541824
543,mecca,21.4267,39.8261,20.91,53,6,2.79,SA,1675541222
544,sajanan,37.0573,9.2426,12.51,74,100,7.65,TN,1675541824
545,kingaroy,-26.5333,151.8333,17.39,62,71,1.95,AU,1675541825
546,waingapu,-9.6567,120.2641,24.34,92,100,3.17,ID,1675541825
547,savelugu,9.6244,-0.8253,32.93,12,98,2.2,GH,1675541826
548,rudnaya pristan,44.3614,135.8116,-11.65,79,98,3.04,RU,1675541826
549,tres picos,15.8667,-93.5333,29.34,48,36,6.01,MX,1675541826
550,storforshei,66.4043,14.5233,-9.08,92,100,0.51,NO,1675541827
551,srandakan,-7.9386,110.2506,24.86,89,100,3.38,ID,1675541827
552,golden,39.7555,-105.2211,12.65,25,40,14.4,US,1675541828
553,hof,50.3167,11.9167,-1.25,86,31,2.06,DE,1675541828
554,iranshahr,27.2025,60.6848,16.19,63,0,2.06,IR,1675541828
555,farah,32.5,62.5,10.9,45,21,0.47,AF,1675541829
556,kaukauna,44.278,-88.272,-1.83,67,75,6.26,US,1675541830
557,bayshore gardens,27.4253,-82.5904,25.04,52,0,7.72,US,1675541830
558,muzaffarabad,34.37,73.4711,9.43,65,3,3.15,PK,1675541831
559,maryville,35.7565,-83.9705,10.37,43,75,3.09,US,1675541752
